[{"site":"nantou","Date":"2020-06-09","Method":"GAM","Feature":"PHR","Data_Length":14,"Latitude":23.913,"Longitude":120.685,"Valid_MAE":1.578,"Model":"https:\/\/raw.githubusercontent.com\/IISNRL\/DCF-PM2.5\/master\/2020\/20200609\/20200609-PMS5003-nantou.joblib","Config":"https:\/\/raw.githubusercontent.com\/IISNRL\/DCF-PM2.5\/master\/2020\/20200609\/20200609-PMS5003-nantou.config","Version":"2020-06-09 15:18:23 UTC"},{"site":"chiayi","Date":"2020-06-09","Method":"LinearRegression","Feature":"PT","Data_Length":7,"Latitude":23.463,"Longitude":120.441,"Valid_MAE":1.156,"Model":"https:\/\/raw.githubusercontent.com\/IISNRL\/DCF-PM2.5\/master\/2020\/20200609\/20200609-PMS5003-chiayi.joblib","Config":"https:\/\/raw.githubusercontent.com\/IISNRL\/DCF-PM2.5\/master\/2020\/20200609\/20200609-PMS5003-chiayi.config","Version":"2020-06-09 15:18:23 UTC"},{"site":"puzi","Date":"2020-06-09","Method":"GAM","Feature":"PTR","Data_Length":7,"Latitude":23.467,"Longitude":120.248,"Valid_MAE":1.251,"Model":"https:\/\/raw.githubusercontent.com\/IISNRL\/DCF-PM2.5\/master\/2020\/20200609\/20200609-PMS5003-puzi.joblib","Config":"https:\/\/raw.githubusercontent.com\/IISNRL\/DCF-PM2.5\/master\/2020\/20200609\/20200609-PMS5003-puzi.config","Version":"2020-06-09 15:18:23 UTC"},{"site":"keelung","Date":"2020-06-09","Method":"BayesianRidge","Feature":"PHT","Data_Length":21,"Latitude":25.129,"Longitude":121.76,"Valid_MAE":1.611,"Model":"https:\/\/raw.githubusercontent.com\/IISNRL\/DCF-PM2.5\/master\/2020\/20200609\/20200609-PMS5003-keelung.joblib","Config":"https:\/\/raw.githubusercontent.com\/IISNRL\/DCF-PM2.5\/master\/2020\/20200609\/20200609-PMS5003-keelung.config","Version":"2020-06-09 15:18:23 UTC"},{"site":"yilan","Date":"2020-06-09","Method":"GAM","Feature":"PR","Data_Length":7,"Latitude":24.748,"Longitude":121.746,"Valid_MAE":1.603,"Model":"https:\/\/raw.githubusercontent.com\/IISNRL\/DCF-PM2.5\/master\/2020\/20200609\/20200609-PMS5003-yilan.joblib","Config":"https:\/\/raw.githubusercontent.com\/IISNRL\/DCF-PM2.5\/master\/2020\/20200609\/20200609-PMS5003-yilan.config","Version":"2020-06-09 15:18:23 UTC"},{"site":"hengchun","Date":"2020-06-09","Method":"BayesianRidge","Feature":"P","Data_Length":14,"Latitude":21.958,"Longitude":120.789,"Valid_MAE":1.334,"Model":"https:\/\/raw.githubusercontent.com\/IISNRL\/DCF-PM2.5\/master\/2020\/20200609\/20200609-PMS5003-hengchun.joblib","Config":"https:\/\/raw.githubusercontent.com\/IISNRL\/DCF-PM2.5\/master\/2020\/20200609\/20200609-PMS5003-hengchun.config","Version":"2020-06-09 15:18:23 UTC"},{"site":"pingtung","Date":"2020-06-09","Method":"GAM","Feature":"PR","Data_Length":7,"Latitude":22.673,"Longitude":120.488,"Valid_MAE":1.514,"Model":"https:\/\/raw.githubusercontent.com\/IISNRL\/DCF-PM2.5\/master\/2020\/20200609\/20200609-PMS5003-pingtung.joblib","Config":"https:\/\/raw.githubusercontent.com\/IISNRL\/DCF-PM2.5\/master\/2020\/20200609\/20200609-PMS5003-pingtung.config","Version":"2020-06-09 15:18:23 UTC"},{"site":"changhua","Date":"2020-06-09","Method":"GAM","Feature":"P","Data_Length":7,"Latitude":24.066,"Longitude":120.542,"Valid_MAE":1.224,"Model":"https:\/\/raw.githubusercontent.com\/IISNRL\/DCF-PM2.5\/master\/2020\/20200609\/20200609-PMS5003-changhua.joblib","Config":"https:\/\/raw.githubusercontent.com\/IISNRL\/DCF-PM2.5\/master\/2020\/20200609\/20200609-PMS5003-changhua.config","Version":"2020-06-09 15:18:23 UTC"},{"site":"banqiao","Date":"2020-06-09","Method":"BayesianRidge","Feature":"PTR","Data_Length":7,"Latitude":25.013,"Longitude":121.459,"Valid_MAE":1.671,"Model":"https:\/\/raw.githubusercontent.com\/IISNRL\/DCF-PM2.5\/master\/2020\/20200609\/20200609-PMS5003-banqiao.joblib","Config":"https:\/\/raw.githubusercontent.com\/IISNRL\/DCF-PM2.5\/master\/2020\/20200609\/20200609-PMS5003-banqiao.config","Version":"2020-06-09 15:18:23 UTC"},{"site":"xizhi","Date":"2020-06-09","Method":"BayesianRidge","Feature":"PT","Data_Length":21,"Latitude":25.067,"Longitude":121.642,"Valid_MAE":2.012,"Model":"https:\/\/raw.githubusercontent.com\/IISNRL\/DCF-PM2.5\/master\/2020\/20200609\/20200609-PMS5003-xizhi.joblib","Config":"https:\/\/raw.githubusercontent.com\/IISNRL\/DCF-PM2.5\/master\/2020\/20200609\/20200609-PMS5003-xizhi.config","Version":"2020-06-09 15:18:23 UTC"},{"site":"hsinchu","Date":"2020-06-09","Method":"RandomForestRegressor","Feature":"PH","Data_Length":7,"Latitude":24.806,"Longitude":120.972,"Valid_MAE":1.947,"Model":"https:\/\/raw.githubusercontent.com\/IISNRL\/DCF-PM2.5\/master\/2020\/20200609\/20200609-PMS5003-hsinchu.joblib","Config":"https:\/\/raw.githubusercontent.com\/IISNRL\/DCF-PM2.5\/master\/2020\/20200609\/20200609-PMS5003-hsinchu.config","Version":"2020-06-09 15:18:23 UTC"},{"site":"zhudong","Date":"2020-06-09","Method":"LinearRegression","Feature":"PHR","Data_Length":7,"Latitude":24.741,"Longitude":121.089,"Valid_MAE":1.456,"Model":"https:\/\/raw.githubusercontent.com\/IISNRL\/DCF-PM2.5\/master\/2020\/20200609\/20200609-PMS5003-zhudong.joblib","Config":"https:\/\/raw.githubusercontent.com\/IISNRL\/DCF-PM2.5\/master\/2020\/20200609\/20200609-PMS5003-zhudong.config","Version":"2020-06-09 15:18:23 UTC"},{"site":"pingzhen","Date":"2020-06-09","Method":"GAM","Feature":"PHR","Data_Length":7,"Latitude":24.953,"Longitude":121.204,"Valid_MAE":1.51,"Model":"https:\/\/raw.githubusercontent.com\/IISNRL\/DCF-PM2.5\/master\/2020\/20200609\/20200609-PMS5003-pingzhen.joblib","Config":"https:\/\/raw.githubusercontent.com\/IISNRL\/DCF-PM2.5\/master\/2020\/20200609\/20200609-PMS5003-pingzhen.config","Version":"2020-06-09 15:18:23 UTC"},{"site":"taoyuan","Date":"2020-06-09","Method":"LassoRegression","Feature":"P","Data_Length":7,"Latitude":24.995,"Longitude":121.304,"Valid_MAE":1.98,"Model":"https:\/\/raw.githubusercontent.com\/IISNRL\/DCF-PM2.5\/master\/2020\/20200609\/20200609-PMS5003-taoyuan.joblib","Config":"https:\/\/raw.githubusercontent.com\/IISNRL\/DCF-PM2.5\/master\/2020\/20200609\/20200609-PMS5003-taoyuan.config","Version":"2020-06-09 15:18:23 UTC"},{"site":"magong","Date":"2020-06-09","Method":"LassoRegression","Feature":"PHT","Data_Length":7,"Latitude":23.569,"Longitude":119.566,"Valid_MAE":1.033,"Model":"https:\/\/raw.githubusercontent.com\/IISNRL\/DCF-PM2.5\/master\/2020\/20200609\/20200609-PMS5003-magong.joblib","Config":"https:\/\/raw.githubusercontent.com\/IISNRL\/DCF-PM2.5\/master\/2020\/20200609\/20200609-PMS5003-magong.config","Version":"2020-06-09 15:18:23 UTC"},{"site":"zhongming","Date":"2020-06-09","Method":"LassoRegression","Feature":"PH","Data_Length":7,"Latitude":24.152,"Longitude":120.641,"Valid_MAE":1.438,"Model":"https:\/\/raw.githubusercontent.com\/IISNRL\/DCF-PM2.5\/master\/2020\/20200609\/20200609-PMS5003-zhongming.joblib","Config":"https:\/\/raw.githubusercontent.com\/IISNRL\/DCF-PM2.5\/master\/2020\/20200609\/20200609-PMS5003-zhongming.config","Version":"2020-06-09 15:18:23 UTC"},{"site":"fengyuan","Date":"2020-06-09","Method":"RandomForestRegressor","Feature":"PHT","Data_Length":7,"Latitude":24.257,"Longitude":120.742,"Valid_MAE":1.687,"Model":"https:\/\/raw.githubusercontent.com\/IISNRL\/DCF-PM2.5\/master\/2020\/20200609\/20200609-PMS5003-fengyuan.joblib","Config":"https:\/\/raw.githubusercontent.com\/IISNRL\/DCF-PM2.5\/master\/2020\/20200609\/20200609-PMS5003-fengyuan.config","Version":"2020-06-09 15:18:23 UTC"},{"site":"yangming","Date":"2020-06-09","Method":"GAM","Feature":"PTR","Data_Length":7,"Latitude":25.183,"Longitude":121.53,"Valid_MAE":1.901,"Model":"https:\/\/raw.githubusercontent.com\/IISNRL\/DCF-PM2.5\/master\/2020\/20200609\/20200609-PMS5003-yangming.joblib","Config":"https:\/\/raw.githubusercontent.com\/IISNRL\/DCF-PM2.5\/master\/2020\/20200609\/20200609-PMS5003-yangming.config","Version":"2020-06-09 15:18:23 UTC"},{"site":"wanhua","Date":"2020-06-09","Method":"BayesianRidge","Feature":"PTR","Data_Length":7,"Latitude":25.047,"Longitude":121.508,"Valid_MAE":1.494,"Model":"https:\/\/raw.githubusercontent.com\/IISNRL\/DCF-PM2.5\/master\/2020\/20200609\/20200609-PMS5003-wanhua.joblib","Config":"https:\/\/raw.githubusercontent.com\/IISNRL\/DCF-PM2.5\/master\/2020\/20200609\/20200609-PMS5003-wanhua.config","Version":"2020-06-09 15:18:23 UTC"},{"site":"shilin","Date":"2020-06-09","Method":"LinearRegression","Feature":"PTR","Data_Length":7,"Latitude":25.105,"Longitude":121.515,"Valid_MAE":1.863,"Model":"https:\/\/raw.githubusercontent.com\/IISNRL\/DCF-PM2.5\/master\/2020\/20200609\/20200609-PMS5003-shilin.joblib","Config":"https:\/\/raw.githubusercontent.com\/IISNRL\/DCF-PM2.5\/master\/2020\/20200609\/20200609-PMS5003-shilin.config","Version":"2020-06-09 15:18:23 UTC"},{"site":"tainan","Date":"2020-06-09","Method":"GAM","Feature":"PTR","Data_Length":7,"Latitude":22.985,"Longitude":120.203,"Valid_MAE":1.463,"Model":"https:\/\/raw.githubusercontent.com\/IISNRL\/DCF-PM2.5\/master\/2020\/20200609\/20200609-PMS5003-tainan.joblib","Config":"https:\/\/raw.githubusercontent.com\/IISNRL\/DCF-PM2.5\/master\/2020\/20200609\/20200609-PMS5003-tainan.config","Version":"2020-06-09 15:18:23 UTC"},{"site":"xinying","Date":"2020-06-09","Method":"GAM","Feature":"PH","Data_Length":7,"Latitude":23.306,"Longitude":120.317,"Valid_MAE":1.528,"Model":"https:\/\/raw.githubusercontent.com\/IISNRL\/DCF-PM2.5\/master\/2020\/20200609\/20200609-PMS5003-xinying.joblib","Config":"https:\/\/raw.githubusercontent.com\/IISNRL\/DCF-PM2.5\/master\/2020\/20200609\/20200609-PMS5003-xinying.config","Version":"2020-06-09 15:18:23 UTC"},{"site":"taitung","Date":"2020-06-09","Method":"GAM","Feature":"PHR","Data_Length":14,"Latitude":22.755,"Longitude":121.15,"Valid_MAE":1.573,"Model":"https:\/\/raw.githubusercontent.com\/IISNRL\/DCF-PM2.5\/master\/2020\/20200609\/20200609-PMS5003-taitung.joblib","Config":"https:\/\/raw.githubusercontent.com\/IISNRL\/DCF-PM2.5\/master\/2020\/20200609\/20200609-PMS5003-taitung.config","Version":"2020-06-09 15:18:23 UTC"},{"site":"sanyi","Date":"2020-06-09","Method":"BayesianRidge","Feature":"PHT","Data_Length":7,"Latitude":24.383,"Longitude":120.759,"Valid_MAE":1.197,"Model":"https:\/\/raw.githubusercontent.com\/IISNRL\/DCF-PM2.5\/master\/2020\/20200609\/20200609-PMS5003-sanyi.joblib","Config":"https:\/\/raw.githubusercontent.com\/IISNRL\/DCF-PM2.5\/master\/2020\/20200609\/20200609-PMS5003-sanyi.config","Version":"2020-06-09 15:18:23 UTC"},{"site":"miaoli","Date":"2020-06-09","Method":"GAM","Feature":"PTR","Data_Length":7,"Latitude":24.565,"Longitude":120.82,"Valid_MAE":1.311,"Model":"https:\/\/raw.githubusercontent.com\/IISNRL\/DCF-PM2.5\/master\/2020\/20200609\/20200609-PMS5003-miaoli.joblib","Config":"https:\/\/raw.githubusercontent.com\/IISNRL\/DCF-PM2.5\/master\/2020\/20200609\/20200609-PMS5003-miaoli.config","Version":"2020-06-09 15:18:23 UTC"},{"site":"matsu","Date":"2020-06-09","Method":"GAM","Feature":"PHR","Data_Length":7,"Latitude":26.16,"Longitude":119.95,"Valid_MAE":2.234,"Model":"https:\/\/raw.githubusercontent.com\/IISNRL\/DCF-PM2.5\/master\/2020\/20200609\/20200609-PMS5003-matsu.joblib","Config":"https:\/\/raw.githubusercontent.com\/IISNRL\/DCF-PM2.5\/master\/2020\/20200609\/20200609-PMS5003-matsu.config","Version":"2020-06-09 15:18:23 UTC"},{"site":"douliu","Date":"2020-06-09","Method":"LassoRegression","Feature":"PH","Data_Length":7,"Latitude":23.712,"Longitude":120.545,"Valid_MAE":1.36,"Model":"https:\/\/raw.githubusercontent.com\/IISNRL\/DCF-PM2.5\/master\/2020\/20200609\/20200609-PMS5003-douliu.joblib","Config":"https:\/\/raw.githubusercontent.com\/IISNRL\/DCF-PM2.5\/master\/2020\/20200609\/20200609-PMS5003-douliu.config","Version":"2020-06-09 15:18:23 UTC"},{"site":"qianjin","Date":"2020-06-09","Method":"GAM","Feature":"PHTR","Data_Length":7,"Latitude":22.633,"Longitude":120.288,"Valid_MAE":1.756,"Model":"https:\/\/raw.githubusercontent.com\/IISNRL\/DCF-PM2.5\/master\/2020\/20200609\/20200609-PMS5003-qianjin.joblib","Config":"https:\/\/raw.githubusercontent.com\/IISNRL\/DCF-PM2.5\/master\/2020\/20200609\/20200609-PMS5003-qianjin.config","Version":"2020-06-09 15:18:23 UTC"},{"site":"meinong","Date":"2020-06-09","Method":"LinearRegression","Feature":"PHTR","Data_Length":7,"Latitude":22.884,"Longitude":120.531,"Valid_MAE":1.545,"Model":"https:\/\/raw.githubusercontent.com\/IISNRL\/DCF-PM2.5\/master\/2020\/20200609\/20200609-PMS5003-meinong.joblib","Config":"https:\/\/raw.githubusercontent.com\/IISNRL\/DCF-PM2.5\/master\/2020\/20200609\/20200609-PMS5003-meinong.config","Version":"2020-06-09 15:18:23 UTC"}]